{
    "type": "FeatureCollection",
    "name": "aws-regions",
    "features": [
        {
            "type": "Feature",
            "properties": {
                "locale": "Asia Pacific",
                "region_name": "ap-northeast-2",
                "location": "Seoul",
                "ep_users": 3
            },
            "geometry": {
                "type": "Point",
                "coordinates": [ 126.9040474, 37.5638354 ]
            }
        },
        {
            "type": "Feature",
            "properties": {
                "locale": "Asia Pacific",
                "region_name": "ap-southeast-2",
                "location": "Sydney",
                "ep_users": 31
            },
            "geometry": {
                "type": "Point",
                "coordinates": [ 150.7918945, -33.8481647 ]
            }
        },
        {
            "type": "Feature",
            "properties": {
                "locale": "Europe",
                "region_name": "eu-central-1",
                "location": "Frankfurt",
                "ep_users": 29
            },
            "geometry": {
                "type": "Point",
                "coordinates": [ 8.5665251, 50.1211909 ]
            }
        },
        {
            "type": "Feature",
            "properties": {
                "locale": "Europe",
                "region_name": "eu-west-2",
                "location": "London",
                "ep_users": 37
            },
            "geometry": {
                "type": "Point",
                "coordinates": [ -0.1716373, 51.5286208 ]
            }
        },
        {
            "type": "Feature",
            "properties": {
                "locale": "Europe",
                "region_name": "eu-west-3",
                "location": "Paris",
                "ep_users": 33
            },
            "geometry": {
                "type": "Point",
                "coordinates": [ 2.3120159, 48.8588495 ]
            }
        },
        {
            "type": "Feature",
            "properties": {
                "locale": "US East",
                "region_name": "us-east-1",
                "location": "N. Virginia",
                "ep_users": 221
            },
            "geometry": {
                "type": "Point",
                "coordinates": [ -78.0682848, 38.7282502 ]
            }
        },
        {
            "type": "Feature",
            "properties": {
                "locale": "US East",
                "region_name": "us-east-2",
                "location": "Ohio",
                "ep_users": 193
            },
            "geometry": {
                "type": "Point",
                "coordinates": [ -83.7901068, 40.3579881 ]
            }
        },
        {
            "type": "Feature",
            "properties": {
                "locale": "US West",
                "region_name": "us-west-2",
                "location": "Oregon",
                "ep_users": 120
            },
            "geometry": {
                "type": "Point",
                "coordinates": [ -121.7042262, 44.1399672 ]
            }
        }
    ]
}
